{"type":"FeatureCollection","features":[{"geometry": {"type": "Point", "coordinates": [-75.26511170139385, 39.968097159986414]}, "type": "Feature", "id": 0, "properties": {"WEBSITE": "http://www.phila.gov/ParksandRecreation/placestogo/facilities/Pages/golffacilities.aspx#page=1&itemId=3d4e7de3-29f4-488d-ba9e-649c51ef18d7", "ADDRESS": "7900 LANSDOWNE AVE", "NAME": "Cobbs Creek Golf Club (Olde)", "DISTRICT": 8, "ZIPCODE": "19151"}},{"geometry": {"type": "Point", "coordinates": [-75.18827077004192, 39.903056007403436]}, "type": "Feature", "id": 1, "properties": {"WEBSITE": "http://www.phila.gov/ParksandRecreation/placestogo/facilities/Pages/golffacilities.aspx#page=1&itemId=cbbb8915-ec24-4c26-9eac-6f657935fd56", "ADDRESS": "1954 PATTISON AVE", "NAME": "Franklin D. Rooselvelt (FDR) Golf Club", "DISTRICT": 7, "ZIPCODE": "19145"}},{"geometry": {"type": "Point", "coordinates": [-75.10250623649502, 40.016931428116465]}, "type": "Feature", "id": 2, "properties": {"WEBSITE": "http://www.phila.gov/ParksandRecreation/placestogo/facilities/Pages/golffacilities.aspx#page=1&itemId=05337e26-ca6b-445e-8e0a-a6575992f0ce", "ADDRESS": "1391 E CAYUGA ST", "NAME": "Juniata Golf Club", "DISTRICT": 3, "ZIPCODE": "19124"}},{"geometry": {"type": "Point", "coordinates": [-75.2023517875914, 40.029377558008676]}, "type": "Feature", "id": 3, "properties": {"WEBSITE": "http://www.phila.gov/ParksandRecreation/placestogo/facilities/Pages/golffacilities.aspx#page=1&itemId=a5402e80-ef6c-4c0c-9689-6a943cfe98a0", "ADDRESS": "700 WALNUT LA", "NAME": "Walnut Lane Golf Club", "DISTRICT": 4, "ZIPCODE": "19128"}},{"geometry": {"type": "Point", "coordinates": [-75.00133166469463, 40.06134739124458]}, "type": "Feature", "id": 4, "properties": {"WEBSITE": "http://www.phila.gov/ParksandRecreation/placestogo/facilities/Pages/golffacilities.aspx#page=1&itemId=3e588d34-715e-412a-956e-1ccae97114e6", "ADDRESS": "9550 LEON ST", "NAME": "John F. Byrne Golf Club", "DISTRICT": 1, "ZIPCODE": "19114"}},{"geometry": {"type": "Point", "coordinates": [-75.0925191509482, 40.06814501004349]}, "type": "Feature", "id": 5, "properties": {"WEBSITE": "http://www.phila.gov/ParksandRecreation/placestogo/facilities/Pages/golffacilities.aspx#page=1&itemId=6845b445-484a-4b4f-bf6b-28fe5469fdcf", "ADDRESS": "401 W COTTMAN AVE", "NAME": "Burholme Golf Family & Entertainment Center", "DISTRICT": 1, "ZIPCODE": "19111"}},{"geometry": {"type": "Point", "coordinates": [-75.27855571139003, 39.97379220734985]}, "type": "Feature", "id": 6, "properties": {"WEBSITE": "http://www.phila.gov/ParksandRecreation/placestogo/facilities/Pages/golffacilities.aspx#page=1", "ADDRESS": "7900 CITY AVE", "NAME": "Cobbs Creek Driving Range & Sports Center", "DISTRICT": 8, "ZIPCODE": "19151"}},{"geometry": {"type": "Point", "coordinates": [-75.19018179621584, 39.98017145119253]}, "type": "Feature", "id": 7, "properties": {"WEBSITE": "http://www.phila.gov/ParksandRecreation/placestogo/facilities/Pages/golffacilities.aspx#page=1&itemId=37e7f8b6-1ab3-4514-b157-c66eac711bfb", "ADDRESS": "3300 RESERVOIR DR", "NAME": "Strawberry Green Driving Range", "DISTRICT": 5, "ZIPCODE": "19121"}},{"geometry": {"type": "Point", "coordinates": [-75.19264684977611, 39.98124786965626]}, "type": "Feature", "id": 8, "properties": {"WEBSITE": "http://www.phila.gov/ParksandRecreation/placestogo/facilities/Pages/golffacilities.aspx#page=1&itemId=1d0cd90e-fdc8-438b-b1cd-2d44737cc6ae", "ADDRESS": "3400 RESERVOIR DR", "NAME": "Sedgley Woods Disc Golf Course", "DISTRICT": 5, "ZIPCODE": "19121"}},{"geometry": {"type": "Point", "coordinates": [-75.15037933930235, 39.95570981194266]}, "type": "Feature", "id": 9, "properties": {"WEBSITE": "http://www.phila.gov/ParksandRecreation/placestogo/facilities/Pages/golffacilities.aspx#page=1&itemId=e647fefc-6d5e-4f7b-a056-0c7e03c13c1a", "ADDRESS": "200 N 06TH ST", "NAME": "Philly Mini Golf at Franklin Square", "DISTRICT": 5, "ZIPCODE": "19106"}},{"geometry": {"type": "Point", "coordinates": [-75.2652768407899, 39.968533644757734]}, "type": "Feature", "id": 10, "properties": {"WEBSITE": "http://www.phila.gov/ParksandRecreation/placestogo/facilities/Pages/golffacilities.aspx#page=1&itemId=f03a288a-f7ae-44d5-8aa9-01e605d652a9", "ADDRESS": "7900 LANSDOWNE AVE", "NAME": "Cobbs Creek Golf Club (Karakung)", "DISTRICT": 8, "ZIPCODE": "19151"}},{"geometry": {"type": "Point", "coordinates": [-75.2775415245524, 39.97614084588741]}, "type": "Feature", "id": 11, "properties": {"WEBSITE": "http://www.phila.gov/ParksandRecreation/placestogo/facilities/Pages/golffacilities.aspx#page=1&itemId=383051b5-6ee2-4aba-ac17-6a709284c1ad", "ADDRESS": "7900 CITY LINE AVE", "NAME": "City Line Sports Center", "DISTRICT": 8, "ZIPCODE": "19151"}}]}