{"type":"FeatureCollection","features":[{"geometry": {"type": "Point", "coordinates": [-75.15394032004735, 39.915309520885685]}, "type": "Feature", "id": 0, "properties": {"WEBSITE": "http://www.phila.gov/parksandrecreation/findafacility/RecCenterDetails.aspx?ID=801", "ADDRESS": "300 SHUNK ST", "NAME": "Murphy", "DISTRICT": 7, "ZIPCODE": "19148"}},{"geometry": {"type": "Point", "coordinates": [-75.21030083649092, 39.94186132092433]}, "type": "Feature", "id": 1, "properties": {"WEBSITE": "http://www.phila.gov/parksandrecreation/findafacility/RecCenterDetails.aspx?ID=860", "ADDRESS": "4740 WOODLAND AVE", "NAME": "48th & Woodland", "DISTRICT": 8, "ZIPCODE": "19143"}},{"geometry": {"type": "Point", "coordinates": [-75.15125431658686, 39.96685962933934]}, "type": "Feature", "id": 2, "properties": {"WEBSITE": "http://www.phila.gov/parksandrecreation/findafacility/RecCenterDetails.aspx?ID=733", "ADDRESS": "800 N 08TH ST", "NAME": "East Poplar", "DISTRICT": 6, "ZIPCODE": "19123"}},{"geometry": {"type": "Point", "coordinates": [-75.14514307095446, 39.973429751603206]}, "type": "Feature", "id": 3, "properties": {"WEBSITE": "http://www.phila.gov/parksandrecreation/findafacility/RecCenterDetails.aspx?ID=729", "ADDRESS": "1400-52 N 05TH ST", "NAME": "Cruz", "DISTRICT": 2, "ZIPCODE": "19122"}},{"geometry": {"type": "Point", "coordinates": [-75.02732054701468, 40.03599763264957]}, "type": "Feature", "id": 4, "properties": {"WEBSITE": "http://www.phila.gov/parksandrecreation/findafacility/RecCenterDetails.aspx?ID=763", "ADDRESS": "4500 RHAWN ST", "NAME": "Holmesburg", "DISTRICT": 1, "ZIPCODE": "19136"}},{"geometry": {"type": "Point", "coordinates": [-75.11847077019466, 39.98049473515868]}, "type": "Feature", "id": 5, "properties": {"WEBSITE": "http://www.phila.gov/parksandrecreation/findafacility/RecCenterDetails.aspx?ID=724", "ADDRESS": "2600 ARAMINGO AVE", "NAME": "Cione", "DISTRICT": 2, "ZIPCODE": "19125"}},{"geometry": {"type": "Point", "coordinates": [-75.18208546466734, 40.05737222412285]}, "type": "Feature", "id": 6, "properties": {"WEBSITE": "http://www.phila.gov/parksandrecreation/findafacility/RecCenterDetails.aspx?ID=815", "ADDRESS": "6750 BOYER ST", "NAME": "Pleasant", "DISTRICT": 4, "ZIPCODE": "19119"}},{"geometry": {"type": "Point", "coordinates": [-75.17884045558927, 39.97777957769221]}, "type": "Feature", "id": 7, "properties": {"WEBSITE": "http://www.phila.gov/parksandrecreation/findafacility/RecCenterDetails.aspx?ID=707", "ADDRESS": "1401-55 N 27TH ST", "NAME": "Athletic", "DISTRICT": 6, "ZIPCODE": "19121"}},{"geometry": {"type": "Point", "coordinates": [-75.16648111745035, 40.02381579098573]}, "type": "Feature", "id": 8, "properties": {"WEBSITE": "http://www.phila.gov/parksandrecreation/findafacility/RecCenterDetails.aspx?ID=757", "ADDRESS": "4740 WAYNE AVE", "NAME": "Happy Hollow", "DISTRICT": 4, "ZIPCODE": "19144"}},{"geometry": {"type": "Point", "coordinates": [-75.09279758751573, 40.021023066151045]}, "type": "Feature", "id": 9, "properties": {"WEBSITE": "http://www.phila.gov/parksandrecreation/findafacility/RecCenterDetails.aspx?ID=835", "ADDRESS": "1010 ARROTT ST", "NAME": "Simpson", "DISTRICT": 3, "ZIPCODE": "19124"}},{"geometry": {"type": "Point", "coordinates": [-75.09934076763791, 39.98256158992873]}, "type": "Feature", "id": 10, "properties": {"WEBSITE": "http://www.phila.gov/parksandrecreation/findafacility/RecCenterDetails.aspx?ID=795", "ADDRESS": "3201 RICHMOND ST", "NAME": "Monkiewicz", "DISTRICT": 2, "ZIPCODE": "19134"}},{"geometry": {"type": "Point", "coordinates": [-75.24046770463204, 39.98190194585638]}, "type": "Feature", "id": 11, "properties": {"WEBSITE": "http://www.phila.gov/parksandrecreation/findafacility/RecCenterDetails.aspx?ID=843", "ADDRESS": "5901-29 W COLUMBIA AVE", "NAME": "Tustin", "DISTRICT": 8, "ZIPCODE": "19151"}},{"geometry": {"type": "Point", "coordinates": [-75.18323351515976, 39.93554427259453]}, "type": "Feature", "id": 12, "properties": {"WEBSITE": "http://www.phila.gov/parksandrecreation/findafacility/RecCenterDetails.aspx?ID=851", "ADDRESS": "1300 S 23RD ST", "NAME": "Wharton Square", "DISTRICT": 7, "ZIPCODE": "19146"}},{"geometry": {"type": "Point", "coordinates": [-75.1564242000997, 40.042716169991095]}, "type": "Feature", "id": 13, "properties": {"WEBSITE": "http://www.phila.gov/parksandrecreation/findafacility/RecCenterDetails.aspx?ID=712", "ADDRESS": "2109 W CHEW AVE", "NAME": "Belfield", "DISTRICT": 4, "ZIPCODE": "19138"}},{"geometry": {"type": "Point", "coordinates": [-75.1647869090324, 39.93316437326655]}, "type": "Feature", "id": 14, "properties": {"WEBSITE": "http://www.phila.gov/parksandrecreation/findafacility/RecCenterDetails.aspx?ID=727", "ADDRESS": "1200 WHARTON ST", "NAME": "Columbus Square", "DISTRICT": 7, "ZIPCODE": "19147"}},{"geometry": {"type": "Point", "coordinates": [-75.15982398954934, 39.93381792523128]}, "type": "Feature", "id": 15, "properties": {"WEBSITE": "http://www.phila.gov/parksandrecreation/findafacility/RecCenterDetails.aspx?ID=716", "ADDRESS": "900 FEDERAL ST", "NAME": "Capitolo", "DISTRICT": 7, "ZIPCODE": "19147"}},{"geometry": {"type": "Point", "coordinates": [-75.18930026712334, 39.93130344474229]}, "type": "Feature", "id": 16, "properties": {"WEBSITE": "http://www.phila.gov/parksandrecreation/findafacility/RecCenterDetails.aspx?ID=844", "ADDRESS": "2600 MORRIS ST", "NAME": "Vare", "DISTRICT": 7, "ZIPCODE": "19145"}},{"geometry": {"type": "Point", "coordinates": [-75.18335205597977, 39.948048215867665]}, "type": "Feature", "id": 17, "properties": {"WEBSITE": "http://www.phila.gov/parksandrecreation/findafacility/RecCenterDetails.aspx?ID=785", "ADDRESS": "400-16 S TANEY ST", "NAME": "Markward", "DISTRICT": 7, "ZIPCODE": "19103"}},{"geometry": {"type": "Point", "coordinates": [-75.18787383376414, 40.05797975501737]}, "type": "Feature", "id": 18, "properties": {"WEBSITE": "http://www.phila.gov/parksandrecreation/findafacility/RecCenterDetails.aspx?ID=799", "ADDRESS": "7001 GERMANTOWN AVE", "NAME": "Mt Airy", "DISTRICT": 4, "ZIPCODE": "19119"}},{"geometry": {"type": "Point", "coordinates": [-75.22961549617453, 40.03343855280864]}, "type": "Feature", "id": 19, "properties": {"WEBSITE": "http://www.phila.gov/parksandrecreation/findafacility/RecCenterDetails.aspx?ID=762", "ADDRESS": "201 FOUNTAIN ST", "NAME": "Hillside", "DISTRICT": 4, "ZIPCODE": "19127"}},{"geometry": {"type": "Point", "coordinates": [-75.17894573542331, 39.91580121945532]}, "type": "Feature", "id": 20, "properties": {"WEBSITE": "http://www.phila.gov/parksandrecreation/findafacility/RecCenterDetails.aspx?ID=711", "ADDRESS": "1800 JOHNSTON ST", "NAME": "Barry", "DISTRICT": 7, "ZIPCODE": "19145"}},{"geometry": {"type": "Point", "coordinates": [-75.08000630171087, 40.02462954537348]}, "type": "Feature", "id": 21, "properties": {"WEBSITE": "http://www.phila.gov/parksandrecreation/findafacility/RecCenterDetails.aspx?ID=791", "ADDRESS": "5200 N PENN ST", "NAME": "McIlvain", "DISTRICT": 2, "ZIPCODE": "19124"}},{"geometry": {"type": "Point", "coordinates": [-75.15085064886348, 39.97558264385436]}, "type": "Feature", "id": 22, "properties": {"WEBSITE": "http://www.phila.gov/parksandrecreation/findafacility/RecCenterDetails.aspx?ID=864", "ADDRESS": "1501-39 N 10TH ST", "NAME": "Dendy", "DISTRICT": 6, "ZIPCODE": "19122"}},{"geometry": {"type": "Point", "coordinates": [-75.13226612897023, 39.977884533216]}, "type": "Feature", "id": 23, "properties": {"WEBSITE": "http://www.phila.gov/parksandrecreation/findafacility/RecCenterDetails.aspx?ID=831", "ADDRESS": "1800-56 BLAIR ST", "NAME": "Shissler", "DISTRICT": 6, "ZIPCODE": "19125"}},{"geometry": {"type": "Point", "coordinates": [-75.15173826512941, 39.93390146159879]}, "type": "Feature", "id": 24, "properties": {"WEBSITE": "http://www.phila.gov/parksandrecreation/findafacility/RecCenterDetails.aspx?ID=883", "ADDRESS": "400 WASHINGTON AVE", "NAME": "Sacks", "DISTRICT": 7, "ZIPCODE": "19147"}},{"geometry": {"type": "Point", "coordinates": [-75.17497315027639, 39.98768312415109]}, "type": "Feature", "id": 25, "properties": {"WEBSITE": "http://www.phila.gov/parksandrecreation/findafacility/RecCenterDetails.aspx?ID=750", "ADDRESS": "2501-59 DIAMOND ST", "NAME": "Gathers", "DISTRICT": 6, "ZIPCODE": "19121"}},{"geometry": {"type": "Point", "coordinates": [-75.17920626813404, 40.04802170263217]}, "type": "Feature", "id": 26, "properties": {"WEBSITE": "http://www.phila.gov/parksandrecreation/findafacility/RecCenterDetails.aspx?ID=782", "ADDRESS": "100-70 E JOHNSON ST", "NAME": "Mallery", "DISTRICT": 4, "ZIPCODE": "19144"}},{"geometry": {"type": "Point", "coordinates": [-75.17592358197417, 40.08157926821442]}, "type": "Feature", "id": 27, "properties": {"WEBSITE": "http://www.phila.gov/parksandrecreation/findafacility/RecCenterDetails.aspx?ID=735", "ADDRESS": "8500 PICKERING AVE", "NAME": "Emanuel", "DISTRICT": 4, "ZIPCODE": "19150"}},{"geometry": {"type": "Point", "coordinates": [-75.16724669634664, 39.96845588349019]}, "type": "Feature", "id": 28, "properties": {"WEBSITE": "http://www.phila.gov/parksandrecreation/findafacility/RecCenterDetails.aspx?ID=746", "ADDRESS": "1737-39 FRANCIS ST", "NAME": "Francisville", "DISTRICT": 6, "ZIPCODE": "19130"}},{"geometry": {"type": "Point", "coordinates": [-75.1750504435002, 40.00224516180566]}, "type": "Feature", "id": 29, "properties": {"WEBSITE": "http://www.phila.gov/parksandrecreation/findafacility/RecCenterDetails.aspx?ID=833", "ADDRESS": "2901 N 29TH ST", "NAME": "Shuler", "DISTRICT": 6, "ZIPCODE": "19132"}},{"geometry": {"type": "Point", "coordinates": [-75.17163606854065, 39.94201631538208]}, "type": "Feature", "id": 30, "properties": {"WEBSITE": "http://www.phila.gov/parksandrecreation/findafacility/RecCenterDetails.aspx?ID=706", "ADDRESS": "740 S 17TH ST", "NAME": "Anderson", "DISTRICT": 7, "ZIPCODE": "19146"}},{"geometry": {"type": "Point", "coordinates": [-75.04436525604403, 40.028411015015216]}, "type": "Feature", "id": 31, "properties": {"WEBSITE": "http://www.phila.gov/parksandrecreation/findafacility/RecCenterDetails.aspx?ID=731", "ADDRESS": "4423 LONGSHORE AVE", "NAME": "Disston", "DISTRICT": 2, "ZIPCODE": "19135"}},{"geometry": {"type": "Point", "coordinates": [-75.12084290849752, 40.021951103012775]}, "type": "Feature", "id": 32, "properties": {"WEBSITE": "http://www.phila.gov/parksandrecreation/findafacility/RecCenterDetails.aspx?ID=736", "ADDRESS": "231-37 E WYOMING AVE", "NAME": "Feltonville", "DISTRICT": 3, "ZIPCODE": "19120"}},{"geometry": {"type": "Point", "coordinates": [-75.15814317988529, 39.94135371013552]}, "type": "Feature", "id": 33, "properties": {"WEBSITE": "http://www.phila.gov/parksandrecreation/findafacility/RecCenterDetails.aspx?ID=808", "ADDRESS": "700 S 09TH ST", "NAME": "Palumbo", "DISTRICT": 7, "ZIPCODE": "19147"}},{"geometry": {"type": "Point", "coordinates": [-75.23437536802048, 39.94870687385507]}, "type": "Feature", "id": 34, "properties": {"WEBSITE": "http://www.phila.gov/parksandrecreation/findafacility/RecCenterDetails.aspx?ID=722", "ADDRESS": "728 S 55TH ST", "NAME": "Christy", "DISTRICT": 8, "ZIPCODE": "19143"}},{"geometry": {"type": "Point", "coordinates": [-75.24897245867824, 39.90842208226822]}, "type": "Feature", "id": 35, "properties": {"WEBSITE": "http://www.phila.gov/parksandrecreation/findafacility/RecCenterDetails.aspx?ID=723", "ADDRESS": "2500 S 77TH ST", "NAME": "Cibotti", "DISTRICT": 8, "ZIPCODE": "19153"}},{"geometry": {"type": "Point", "coordinates": [-75.06104426702241, 40.029368120376795]}, "type": "Feature", "id": 36, "properties": {"WEBSITE": "http://www.phila.gov/parksandrecreation/findafacility/RecCenterDetails.aspx?ID=780", "ADDRESS": "3001 ROBBINS ST", "NAME": "Lower Mayfair", "DISTRICT": 2, "ZIPCODE": "19149"}},{"geometry": {"type": "Point", "coordinates": [-75.09836615563712, 39.99776001558819]}, "type": "Feature", "id": 37, "properties": {"WEBSITE": "http://www.phila.gov/parksandrecreation/findafacility/RecCenterDetails.aspx?ID=760", "ADDRESS": "2136 CASTOR AVE", "NAME": "Heitzman", "DISTRICT": 2, "ZIPCODE": "19134"}},{"geometry": {"type": "Point", "coordinates": [-75.17401897411024, 39.9382425885665]}, "type": "Feature", "id": 38, "properties": {"WEBSITE": "http://www.phila.gov/parksandrecreation/findafacility/RecCenterDetails.aspx?ID=721", "ADDRESS": "1800 WASHINGTON AVE", "NAME": "Chew", "DISTRICT": 7, "ZIPCODE": "19146"}},{"geometry": {"type": "Point", "coordinates": [-75.19280868647334, 39.93800265515426]}, "type": "Feature", "id": 39, "properties": {"WEBSITE": "http://www.phila.gov/parksandrecreation/findafacility/RecCenterDetails.aspx?ID=738", "ADDRESS": "1231 S 30TH ST", "NAME": "D. Finnegan", "DISTRICT": 7, "ZIPCODE": "19146"}},{"geometry": {"type": "Point", "coordinates": [-75.2159723730105, 39.96582808745779]}, "type": "Feature", "id": 40, "properties": {"WEBSITE": "http://www.phila.gov/parksandrecreation/findafacility/RecCenterDetails.aspx?ID=793", "ADDRESS": "743-81 N 48TH ST", "NAME": "Mill Creek", "DISTRICT": 8, "ZIPCODE": "19139"}},{"geometry": {"type": "Point", "coordinates": [-75.19584863095756, 39.96762444166115]}, "type": "Feature", "id": 41, "properties": {"WEBSITE": "http://www.phila.gov/parksandrecreation/findafacility/RecCenterDetails.aspx?ID=787", "ADDRESS": "732-66 N 36TH ST", "NAME": "Miles Mack", "DISTRICT": 8, "ZIPCODE": "19104"}},{"geometry": {"type": "Point", "coordinates": [-75.16810262139583, 39.965666290330894]}, "type": "Feature", "id": 42, "properties": {"WEBSITE": "http://www.phila.gov/parksandrecreation/findafacility/RecCenterDetails.aspx?ID=725", "ADDRESS": "1800 WALLACE ST", "NAME": "Clemente", "DISTRICT": 6, "ZIPCODE": "19130"}},{"geometry": {"type": "Point", "coordinates": [-75.2274909727652, 39.97531462668712]}, "type": "Feature", "id": 43, "properties": {"WEBSITE": "http://www.phila.gov/parksandrecreation/findafacility/RecCenterDetails.aspx?ID=728", "ADDRESS": "5200-300 MEDIA ST", "NAME": "Conestoga", "DISTRICT": 8, "ZIPCODE": "19131"}},{"geometry": {"type": "Point", "coordinates": [-75.09715113998357, 39.99063748212316]}, "type": "Feature", "id": 44, "properties": {"WEBSITE": "http://www.phila.gov/parksandrecreation/findafacility/RecCenterDetails.aspx?ID=825", "ADDRESS": "2501 E TIOGA ST", "NAME": "Samuel", "DISTRICT": 2, "ZIPCODE": "19134"}},{"geometry": {"type": "Point", "coordinates": [-75.04810036362944, 40.02162340193932]}, "type": "Feature", "id": 45, "properties": {"WEBSITE": "http://www.phila.gov/parksandrecreation/findafacility/RecCenterDetails.aspx?ID=732", "ADDRESS": "6501 HEGERMAN ST", "NAME": "Dorsey", "DISTRICT": 2, "ZIPCODE": "19135"}},{"geometry": {"type": "Point", "coordinates": [-75.14921670192055, 39.9968161856326]}, "type": "Feature", "id": 46, "properties": {"WEBSITE": "http://www.phila.gov/parksandrecreation/findafacility/RecCenterDetails.aspx?ID=859", "ADDRESS": "1149 W CAMBRIA ST", "NAME": "12th & Cambria", "DISTRICT": 3, "ZIPCODE": "19133"}},{"geometry": {"type": "Point", "coordinates": [-75.15298517877463, 39.94279279227262]}, "type": "Feature", "id": 47, "properties": {"WEBSITE": "http://www.phila.gov/parksandrecreation/findafacility/RecCenterDetails.aspx?ID=837", "ADDRESS": "600-44 LOMBARD ST", "NAME": "Starr Garden", "DISTRICT": 7, "ZIPCODE": "19147"}},{"geometry": {"type": "Point", "coordinates": [-75.1729381361041, 39.922891735893394]}, "type": "Feature", "id": 48, "properties": {"WEBSITE": "http://www.phila.gov/parksandrecreation/findafacility/RecCenterDetails.aspx?ID=754", "ADDRESS": "2201 S 16TH ST", "NAME": "Guerin", "DISTRICT": 7, "ZIPCODE": "19145"}},{"geometry": {"type": "Point", "coordinates": [-75.16958114909144, 39.92908111883127]}, "type": "Feature", "id": 49, "properties": {"WEBSITE": "http://www.phila.gov/parksandrecreation/findafacility/RecCenterDetails.aspx?ID=730", "ADDRESS": "1700 S BROAD ST", "NAME": "DiSilvestro", "DISTRICT": 7, "ZIPCODE": "19145"}},{"geometry": {"type": "Point", "coordinates": [-75.15163252811988, 39.986030185713396]}, "type": "Feature", "id": 50, "properties": {"WEBSITE": "http://www.phila.gov/parksandrecreation/findafacility/RecCenterDetails.aspx?ID=810", "ADDRESS": "1101 W SUSQUEHANNA AVE", "NAME": "Penrose", "DISTRICT": 6, "ZIPCODE": "19133"}},{"geometry": {"type": "Point", "coordinates": [-75.15926862294559, 39.94361008366614]}, "type": "Feature", "id": 51, "properties": {"WEBSITE": "http://www.phila.gov/parksandrecreation/findafacility/RecCenterDetails.aspx?ID=829", "ADDRESS": "1000-42 LOMBARD ST", "NAME": "Seger", "DISTRICT": 7, "ZIPCODE": "19147"}},{"geometry": {"type": "Point", "coordinates": [-75.13736172407205, 39.97286905016491]}, "type": "Feature", "id": 52, "properties": {"WEBSITE": "http://www.phila.gov/parksandrecreation/findafacility/RecCenterDetails.aspx?ID=756", "ADDRESS": "147 MASTER ST", "NAME": "Hancock", "DISTRICT": 2, "ZIPCODE": "19122"}},{"geometry": {"type": "Point", "coordinates": [-75.1351283098992, 39.97843289460558]}, "type": "Feature", "id": 53, "properties": {"WEBSITE": "http://www.phila.gov/parksandrecreation/findafacility/RecCenterDetails.aspx?ID=842", "ADDRESS": "1832-50 N HOWARD ST", "NAME": "Towey", "DISTRICT": 6, "ZIPCODE": "19122"}},{"geometry": {"type": "Point", "coordinates": [-75.12802175752401, 39.97177301317511]}, "type": "Feature", "id": 54, "properties": {"WEBSITE": "http://www.phila.gov/parksandrecreation/findafacility/RecCenterDetails.aspx?ID=741", "ADDRESS": "1202-32 E MONTGOMERY AVE", "NAME": "Fishtown", "DISTRICT": 2, "ZIPCODE": "19125"}},{"geometry": {"type": "Point", "coordinates": [-75.14598759658061, 39.93493147640153]}, "type": "Feature", "id": 55, "properties": {"WEBSITE": "http://www.phila.gov/parksandrecreation/findafacility/RecCenterDetails.aspx?ID=832", "ADDRESS": "101-31 CARPENTER ST", "NAME": "Shot Tower", "DISTRICT": 7, "ZIPCODE": "19147"}},{"geometry": {"type": "Point", "coordinates": [-75.16030583006473, 39.981631098933406]}, "type": "Feature", "id": 56, "properties": {"WEBSITE": "http://www.phila.gov/parksandrecreation/findafacility/RecCenterDetails.aspx?ID=704", "ADDRESS": "1817-59 N 16TH ST", "NAME": "Amos", "DISTRICT": 6, "ZIPCODE": "19121"}},{"geometry": {"type": "Point", "coordinates": [-75.16346410788762, 39.93844765469559]}, "type": "Feature", "id": 57, "properties": {"WEBSITE": "http://www.phila.gov/parksandrecreation/findafacility/RecCenterDetails.aspx?ID=758", "ADDRESS": "1200 CARPENTER ST", "NAME": "Hawthorne", "DISTRICT": 7, "ZIPCODE": "19147"}},{"geometry": {"type": "Point", "coordinates": [-75.2311984217678, 39.977364468608826]}, "type": "Feature", "id": 58, "properties": {"WEBSITE": "http://www.phila.gov/parksandrecreation/findafacility/RecCenterDetails.aspx?ID=709", "ADDRESS": "5431-43 LANSDOWNE AVE", "NAME": "Baker", "DISTRICT": 8, "ZIPCODE": "19131"}},{"geometry": {"type": "Point", "coordinates": [-75.14747610620704, 39.98312462410116]}, "type": "Feature", "id": 59, "properties": {"WEBSITE": "http://www.phila.gov/parksandrecreation/findafacility/RecCenterDetails.aspx?ID=858", "ADDRESS": "2032-62 N 08TH ST", "NAME": "8th & Diamond", "DISTRICT": 6, "ZIPCODE": "19122"}},{"geometry": {"type": "Point", "coordinates": [-75.13819574612641, 39.989064645074926]}, "type": "Feature", "id": 60, "properties": {"WEBSITE": "http://www.phila.gov/parksandrecreation/findafacility/RecCenterDetails.aspx?ID=804", "ADDRESS": "2500-34 N 03RD ST", "NAME": "Nelson", "DISTRICT": 6, "ZIPCODE": "19133"}},{"geometry": {"type": "Point", "coordinates": [-75.14359038792013, 39.96276798596826]}, "type": "Feature", "id": 61, "properties": {"WEBSITE": "http://www.phila.gov/parksandrecreation/findafacility/RecCenterDetails.aspx?ID=805", "ADDRESS": "313-27 FAIRMOUNT AVE", "NAME": "Northern Liberties", "DISTRICT": 2, "ZIPCODE": "19123"}},{"geometry": {"type": "Point", "coordinates": [-75.10140077495895, 39.986459571216805]}, "type": "Feature", "id": 62, "properties": {"WEBSITE": "http://www.phila.gov/parksandrecreation/findafacility/RecCenterDetails.aspx?ID=751", "ADDRESS": "3267-81 ALMOND ST", "NAME": "Glavin", "DISTRICT": 2, "ZIPCODE": "19134"}},{"geometry": {"type": "Point", "coordinates": [-75.18521030165684, 39.96892787349792]}, "type": "Feature", "id": 63, "properties": {"WEBSITE": "http://www.phila.gov/parksandrecreation/findafacility/RecCenterDetails.aspx?ID=927", "ADDRESS": "1 JOHN B KELLY DR", "NAME": "Lloyd Hall", "DISTRICT": 5, "ZIPCODE": "19130"}},{"geometry": {"type": "Point", "coordinates": [-75.12937275285984, 40.00195847900957]}, "type": "Feature", "id": 64, "properties": {"WEBSITE": "http://www.phila.gov/parksandrecreation/findafacility/RecCenterDetails.aspx?ID=828", "ADDRESS": "113-23 W ONTARIO ST", "NAME": "Schmidt", "DISTRICT": 3, "ZIPCODE": "19140"}},{"geometry": {"type": "Point", "coordinates": [-75.02187550671383, 40.09036021096163]}, "type": "Feature", "id": 65, "properties": {"WEBSITE": "http://www.phila.gov/parksandrecreation/findafacility/RecCenterDetails.aspx?ID=759", "ADDRESS": "9850 E ROOSEVELT BLV", "NAME": "Hayes", "DISTRICT": 1, "ZIPCODE": "19115"}},{"geometry": {"type": "Point", "coordinates": [-75.16763537763994, 39.99361595680805]}, "type": "Feature", "id": 66, "properties": {"WEBSITE": "http://www.phila.gov/parksandrecreation/findafacility/RecCenterDetails.aspx?ID=796", "ADDRESS": "2020-50 W LEHIGH AVE", "NAME": "C. B. Moore", "DISTRICT": 6, "ZIPCODE": "19132"}},{"geometry": {"type": "Point", "coordinates": [-75.16133207499749, 40.00635772908881]}, "type": "Feature", "id": 67, "properties": {"WEBSITE": "http://www.phila.gov/parksandrecreation/findafacility/RecCenterDetails.aspx?ID=770", "ADDRESS": "1927-41 W ONTARIO ST", "NAME": "Jerome Brown", "DISTRICT": 4, "ZIPCODE": "19140"}},{"geometry": {"type": "Point", "coordinates": [-75.14367727236433, 40.01684011300395]}, "type": "Feature", "id": 68, "properties": {"WEBSITE": "http://www.phila.gov/parksandrecreation/findafacility/RecCenterDetails.aspx?ID=863", "ADDRESS": "1101 W HUNTING PARK AVE", "NAME": "Hunting Park", "DISTRICT": 3, "ZIPCODE": "19140"}},{"geometry": {"type": "Point", "coordinates": [-75.06855540322435, 40.02444298358562]}, "type": "Feature", "id": 69, "properties": {"WEBSITE": "http://www.phila.gov/parksandrecreation/findafacility/RecCenterDetails.aspx?ID=854", "ADDRESS": "5801 FRANKFORD AVE", "NAME": "Wissinoming", "DISTRICT": 2, "ZIPCODE": "19135"}},{"geometry": {"type": "Point", "coordinates": [-75.16318704669385, 40.05364661150279]}, "type": "Feature", "id": 70, "properties": {"WEBSITE": "http://www.phila.gov/parksandrecreation/findafacility/RecCenterDetails.aspx?ID=708", "ADDRESS": "6101 ARDLEIGH ST", "NAME": "Awbury", "DISTRICT": 4, "ZIPCODE": "19138"}},{"geometry": {"type": "Point", "coordinates": [-75.13174260387247, 40.0433523594902]}, "type": "Feature", "id": 71, "properties": {"WEBSITE": "http://www.phila.gov/parksandrecreation/findafacility/RecCenterDetails.aspx?ID=866", "ADDRESS": "6000 N 05TH ST", "NAME": "Fisher Park", "DISTRICT": 3, "ZIPCODE": "19120"}},{"geometry": {"type": "Point", "coordinates": [-74.96923006737303, 40.103676569742845]}, "type": "Feature", "id": 72, "properties": {"WEBSITE": "http://www.phila.gov/parksandrecreation/findafacility/RecCenterDetails.aspx?ID=769", "ADDRESS": "3102 MECHANICSVILLE RD", "NAME": "Junod", "DISTRICT": 1, "ZIPCODE": "19154"}},{"geometry": {"type": "Point", "coordinates": [-75.25138766392114, 39.90528974294348]}, "type": "Feature", "id": 73, "properties": {"WEBSITE": "http://www.phila.gov/parksandrecreation/findafacility/RecCenterDetails.aspx?ID=734", "ADDRESS": "80TH ST & MARS PL", "NAME": "Eastwick Regional", "DISTRICT": 8, "ZIPCODE": "19153"}},{"geometry": {"type": "Point", "coordinates": [-74.99004398004561, 40.09797767882956]}, "type": "Feature", "id": 74, "properties": {"WEBSITE": "http://www.phila.gov/parksandrecreation/findafacility/RecCenterDetails.aspx?ID=807", "ADDRESS": "11701 THORNTON RD", "NAME": "Palmer", "DISTRICT": 1, "ZIPCODE": "19154"}},{"geometry": {"type": "Point", "coordinates": [-75.23146033066277, 39.914832416551526]}, "type": "Feature", "id": 75, "properties": {"WEBSITE": "http://www.phila.gov/parksandrecreation/findafacility/RecCenterDetails.aspx?ID=740", "ADDRESS": "6801 GROVERS AVE", "NAME": "J. Finnegan", "DISTRICT": 8, "ZIPCODE": "19142"}},{"geometry": {"type": "Point", "coordinates": [-75.10159378241266, 40.04668997442121]}, "type": "Feature", "id": 76, "properties": {"WEBSITE": "http://www.phila.gov/parksandrecreation/findafacility/RecCenterDetails.aspx?ID=777", "ADDRESS": "6000 RISING SUN AVE", "NAME": "Lawncrest", "DISTRICT": 3, "ZIPCODE": "19111"}},{"geometry": {"type": "Point", "coordinates": [-75.04958179172068, 40.02920529181486]}, "type": "Feature", "id": 77, "properties": {"WEBSITE": "http://www.phila.gov/parksandrecreation/findafacility/RecCenterDetails.aspx?ID=846", "ADDRESS": "4131 UNRUH AVE", "NAME": "Vogt", "DISTRICT": 2, "ZIPCODE": "19135"}},{"geometry": {"type": "Point", "coordinates": [-75.05357475167342, 40.01871738644831]}, "type": "Feature", "id": 78, "properties": {"WEBSITE": "http://www.phila.gov/parksandrecreation/findafacility/RecCenterDetails.aspx?ID=703", "ADDRESS": "6201 TORRESDALE AVE", "NAME": "American Legion", "DISTRICT": 2, "ZIPCODE": "19135"}},{"geometry": {"type": "Point", "coordinates": [-75.00222706176133, 40.05124399409347]}, "type": "Feature", "id": 79, "properties": {"WEBSITE": "http://www.phila.gov/parksandrecreation/findafacility/RecCenterDetails.aspx?ID=767", "ADDRESS": "9050 TORRESDALE AVE", "NAME": "Jacobs", "DISTRICT": 1, "ZIPCODE": "19136"}},{"geometry": {"type": "Point", "coordinates": [-75.08112353674127, 40.0730194870369]}, "type": "Feature", "id": 80, "properties": {"WEBSITE": "http://www.phila.gov/parksandrecreation/findafacility/RecCenterDetails.aspx?ID=745", "ADDRESS": "601 BORBECK AVE", "NAME": "Fox Chase", "DISTRICT": 1, "ZIPCODE": "19111"}},{"geometry": {"type": "Point", "coordinates": [-74.99798348035019, 40.059015860048376]}, "type": "Feature", "id": 81, "properties": {"WEBSITE": "http://www.phila.gov/parksandrecreation/findafacility/RecCenterDetails.aspx?ID=841", "ADDRESS": "9550 FRANKFORD AVE", "NAME": "Torresdale", "DISTRICT": 1, "ZIPCODE": "19114"}},{"geometry": {"type": "Point", "coordinates": [-75.15814139576713, 40.06086949689749]}, "type": "Feature", "id": 82, "properties": {"WEBSITE": "http://www.phila.gov/parksandrecreation/findafacility/RecCenterDetails.aspx?ID=834", "ADDRESS": "1601-35 E WALNUT LA", "NAME": "Simons", "DISTRICT": 4, "ZIPCODE": "19138"}},{"geometry": {"type": "Point", "coordinates": [-75.11688589526011, 40.0425482436433]}, "type": "Feature", "id": 83, "properties": {"WEBSITE": "http://www.phila.gov/parksandrecreation/findafacility/RecCenterDetails.aspx?ID=806", "ADDRESS": "100 E GODFREY AVE", "NAME": "Olney", "DISTRICT": 3, "ZIPCODE": "19120"}},{"geometry": {"type": "Point", "coordinates": [-75.0331884579784, 40.03005976719758]}, "type": "Feature", "id": 84, "properties": {"WEBSITE": "http://www.phila.gov/parksandrecreation/findafacility/RecCenterDetails.aspx?ID=824", "ADDRESS": "7301 TORRESDALE AVE", "NAME": "Russo Park", "DISTRICT": 1, "ZIPCODE": "19136"}},{"geometry": {"type": "Point", "coordinates": [-75.07025282195687, 40.03830139253854]}, "type": "Feature", "id": 85, "properties": {"WEBSITE": "http://www.phila.gov/parksandrecreation/findafacility/RecCenterDetails.aspx?ID=803", "ADDRESS": "1601 HELLERMAN ST", "NAME": "Max Myers", "DISTRICT": 1, "ZIPCODE": "19149"}},{"geometry": {"type": "Point", "coordinates": [-74.97370954887252, 40.08069075285177]}, "type": "Feature", "id": 86, "properties": {"WEBSITE": "http://www.phila.gov/parksandrecreation/findafacility/RecCenterDetails.aspx?ID=719", "ADDRESS": "4336 DEERPATH LA", "NAME": "Chalfont", "DISTRICT": 1, "ZIPCODE": "19154"}},{"geometry": {"type": "Point", "coordinates": [-75.2027660910943, 40.01260241289222]}, "type": "Feature", "id": 87, "properties": {"WEBSITE": "http://www.phila.gov/parksandrecreation/findafacility/RecCenterDetails.aspx?ID=875", "ADDRESS": "4868 RIDGE AVE", "NAME": "Gustine", "DISTRICT": 4, "ZIPCODE": "19129"}},{"geometry": {"type": "Point", "coordinates": [-75.03299507784652, 40.10065179356722]}, "type": "Feature", "id": 88, "properties": {"WEBSITE": "http://www.phila.gov/parksandrecreation/findafacility/RecCenterDetails.aspx?ID=774", "ADDRESS": "800 BARTLETT ST", "NAME": "Lackman", "DISTRICT": 1, "ZIPCODE": "19115"}},{"geometry": {"type": "Point", "coordinates": [-75.07563389159722, 40.01407140883458]}, "type": "Feature", "id": 89, "properties": {"WEBSITE": "http://www.phila.gov/parksandrecreation/findafacility/RecCenterDetails.aspx?ID=749", "ADDRESS": "1900 WAKELING ST", "NAME": "Gambrel", "DISTRICT": 2, "ZIPCODE": "19124"}},{"geometry": {"type": "Point", "coordinates": [-75.07431898374475, 40.011351584414406]}, "type": "Feature", "id": 90, "properties": {"WEBSITE": "http://www.phila.gov/parksandrecreation/findafacility/RecCenterDetails.aspx?ID=718", "ADDRESS": "2100 WAKELING ST", "NAME": "Carmella", "DISTRICT": 2, "ZIPCODE": "19124"}},{"geometry": {"type": "Point", "coordinates": [-75.05028592774134, 40.06141076048]}, "type": "Feature", "id": 91, "properties": {"WEBSITE": "http://www.phila.gov/parksandrecreation/findafacility/RecCenterDetails.aspx?ID=819", "ADDRESS": "8101 BUSTLETON AVE", "NAME": "Pelbano", "DISTRICT": 1, "ZIPCODE": "19152"}},{"geometry": {"type": "Point", "coordinates": [-75.07683449131771, 40.05584490980542]}, "type": "Feature", "id": 92, "properties": {"WEBSITE": "http://www.phila.gov/parksandrecreation/findafacility/RecCenterDetails.aspx?ID=768", "ADDRESS": "1400 COTTMAN AVE", "NAME": "Jardel", "DISTRICT": 1, "ZIPCODE": "19111"}},{"geometry": {"type": "Point", "coordinates": [-75.0073965413047, 40.12271182550899]}, "type": "Feature", "id": 93, "properties": {"WEBSITE": "http://www.phila.gov/parksandrecreation/findafacility/RecCenterDetails.aspx?ID=714", "ADDRESS": "13024 STEVENS RD", "NAME": "Boyle", "DISTRICT": 1, "ZIPCODE": "19116"}},{"geometry": {"type": "Point", "coordinates": [-75.15241655700892, 40.02459048867514]}, "type": "Feature", "id": 94, "properties": {"WEBSITE": "http://www.phila.gov/parksandrecreation/findafacility/RecCenterDetails.aspx?ID=838", "ADDRESS": "4600 N 16TH ST", "NAME": "Stenton Park", "DISTRICT": 4, "ZIPCODE": "19140"}},{"geometry": {"type": "Point", "coordinates": [-75.01019653671464, 40.056402850677415]}, "type": "Feature", "id": 95, "properties": {"WEBSITE": "http://www.phila.gov/parksandrecreation/findafacility/RecCenterDetails.aspx?ID=882", "ADDRESS": "9152 ACADEMY RD", "NAME": "Thomas Holme", "DISTRICT": 1, "ZIPCODE": "19114"}},{"geometry": {"type": "Point", "coordinates": [-75.25695205826298, 39.97490707430412]}, "type": "Feature", "id": 96, "properties": {"WEBSITE": "http://www.phila.gov/parksandrecreation/findafacility/RecCenterDetails.aspx?ID=870", "ADDRESS": "6839 LANSDOWNE AVE", "NAME": "Papa", "DISTRICT": 8, "ZIPCODE": "19151"}},{"geometry": {"type": "Point", "coordinates": [-75.20104723803587, 40.07549205653544]}, "type": "Feature", "id": 97, "properties": {"WEBSITE": "http://www.phila.gov/parksandrecreation/findafacility/RecCenterDetails.aspx?ID=847", "ADDRESS": "209-99 E HARTWELL LA", "NAME": "Water Tower", "DISTRICT": 4, "ZIPCODE": "19118"}},{"geometry": {"type": "Point", "coordinates": [-75.0248727201427, 40.04736229916904]}, "type": "Feature", "id": 98, "properties": {"WEBSITE": "http://www.phila.gov/parksandrecreation/findafacility/RecCenterDetails.aspx?ID=817", "ADDRESS": "3300-40 SOLLY AVE", "NAME": "Ramp", "DISTRICT": 1, "ZIPCODE": "19136"}},{"geometry": {"type": "Point", "coordinates": [-74.98989180138109, 40.07983623028192]}, "type": "Feature", "id": 99, "properties": {"WEBSITE": "http://www.phila.gov/parksandrecreation/findafacility/RecCenterDetails.aspx?ID=812", "ADDRESS": "3325 RED LION RD", "NAME": "Picariello", "DISTRICT": 1, "ZIPCODE": "19154"}},{"geometry": {"type": "Point", "coordinates": [-75.21025356457828, 39.96166313365563]}, "type": "Feature", "id": 100, "properties": {"WEBSITE": "http://www.phila.gov/parksandrecreation/findafacility/RecCenterDetails.aspx?ID=778", "ADDRESS": "4310 HAVERFORD AVE", "NAME": "Lee Cultural Center", "DISTRICT": 8, "ZIPCODE": "19104"}},{"geometry": {"type": "Point", "coordinates": [-75.21723079613568, 39.94266015353474]}, "type": "Feature", "id": 101, "properties": {"WEBSITE": "http://www.phila.gov/parksandrecreation/findafacility/RecCenterDetails.aspx?ID=773", "ADDRESS": "4901 KINGSESSING AVE", "NAME": "Kingsessing", "DISTRICT": 8, "ZIPCODE": "19143"}},{"geometry": {"type": "Point", "coordinates": [-75.09381355385477, 40.02905235116852]}, "type": "Feature", "id": 102, "properties": {"WEBSITE": "http://www.phila.gov/parksandrecreation/findafacility/RecCenterDetails.aspx?ID=764", "ADDRESS": "5091 SUMMERDALE AVE", "NAME": "Houseman", "DISTRICT": 3, "ZIPCODE": "19124"}},{"geometry": {"type": "Point", "coordinates": [-75.23111177997379, 40.0692446777807]}, "type": "Feature", "id": 103, "properties": {"WEBSITE": "http://www.phila.gov/parksandrecreation/findafacility/RecCenterDetails.aspx?ID=765", "ADDRESS": "900 GRAKYN LA", "NAME": "Houston", "DISTRICT": 4, "ZIPCODE": "19128"}},{"geometry": {"type": "Point", "coordinates": [-75.234668738807, 39.96699324910068]}, "type": "Feature", "id": 104, "properties": {"WEBSITE": "http://www.phila.gov/parksandrecreation/findafacility/RecCenterDetails.aspx?ID=830", "ADDRESS": "5700 HAVERFORD AVE", "NAME": "Shepard", "DISTRICT": 8, "ZIPCODE": "19131"}},{"geometry": {"type": "Point", "coordinates": [-75.21176870585715, 40.028823687998795]}, "type": "Feature", "id": 105, "properties": {"WEBSITE": "http://www.phila.gov/parksandrecreation/findafacility/RecCenterDetails.aspx?ID=771", "ADDRESS": "5822-24 RIDGE AVE", "NAME": "Kendrick", "DISTRICT": 4, "ZIPCODE": "19128"}},{"geometry": {"type": "Point", "coordinates": [-75.06759702725539, 39.99922220974159]}, "type": "Feature", "id": 106, "properties": {"WEBSITE": "http://www.phila.gov/parksandrecreation/findafacility/RecCenterDetails.aspx?ID=715", "ADDRESS": "4625 RICHMOND ST", "NAME": "Bridesburg", "DISTRICT": 2, "ZIPCODE": "19137"}},{"geometry": {"type": "Point", "coordinates": [-75.24934919660896, 39.95827511452214]}, "type": "Feature", "id": 107, "properties": {"WEBSITE": "http://www.phila.gov/parksandrecreation/findafacility/RecCenterDetails.aspx?ID=885", "ADDRESS": "250 S 63RD ST", "NAME": "Cobbs Creek", "DISTRICT": 8, "ZIPCODE": "19139"}},{"geometry": {"type": "Point", "coordinates": [-75.22884831650076, 39.9345427123111]}, "type": "Feature", "id": 108, "properties": {"WEBSITE": "http://www.phila.gov/parksandrecreation/findafacility/RecCenterDetails.aspx?ID=802", "ADDRESS": "5800 CHESTER AVE", "NAME": "Myers", "DISTRICT": 8, "ZIPCODE": "19143"}},{"geometry": {"type": "Point", "coordinates": [-75.18732206076889, 39.92537580840664]}, "type": "Feature", "id": 109, "properties": {"WEBSITE": "http://www.phila.gov/parksandrecreation/findafacility/RecCenterDetails.aspx?ID=836", "ADDRESS": "2200 S 24TH ST", "NAME": "Smith", "DISTRICT": 7, "ZIPCODE": "19145"}},{"geometry": {"type": "Point", "coordinates": [-75.1866712275616, 40.008948030025635]}, "type": "Feature", "id": 110, "properties": {"WEBSITE": "http://www.phila.gov/parksandrecreation/findafacility/RecCenterDetails.aspx?ID=790", "ADDRESS": "3500 CRAWFORD ST", "NAME": "McDevitt", "DISTRICT": 4, "ZIPCODE": "19129"}},{"geometry": {"type": "Point", "coordinates": [-75.11881090757012, 40.03417672867071]}, "type": "Feature", "id": 111, "properties": {"WEBSITE": "http://www.phila.gov/parksandrecreation/findafacility/RecCenterDetails.aspx?ID=857", "ADDRESS": "200-64 E OLNEY AVE", "NAME": "Ziehler", "DISTRICT": 3, "ZIPCODE": "19120"}},{"geometry": {"type": "Point", "coordinates": [-74.99123794986403, 40.06786325789785]}, "type": "Feature", "id": 112, "properties": {"WEBSITE": "http://www.phila.gov/parksandrecreation/findafacility/RecCenterDetails.aspx?ID=794", "ADDRESS": "3694 CHESTERFIELD RD", "NAME": "Mitchell", "DISTRICT": 1, "ZIPCODE": "19114"}},{"geometry": {"type": "Point", "coordinates": [-75.16961687171138, 40.06485223087143]}, "type": "Feature", "id": 113, "properties": {"WEBSITE": "http://www.phila.gov/parksandrecreation/findafacility/RecCenterDetails.aspx?ID=738", "ADDRESS": "7701 MANSFIELD AVE", "NAME": "Finley", "DISTRICT": 4, "ZIPCODE": "19150"}},{"geometry": {"type": "Point", "coordinates": [-75.02501987626998, 40.11510999008699]}, "type": "Feature", "id": 114, "properties": {"WEBSITE": "http://www.phila.gov/parksandrecreation/findafacility/RecCenterDetails.aspx?ID=752", "ADDRESS": "575 TOMLINSON RD", "NAME": "Gifford", "DISTRICT": 1, "ZIPCODE": "19116"}},{"geometry": {"type": "Point", "coordinates": [-75.14684524411832, 40.050585487539365]}, "type": "Feature", "id": 115, "properties": {"WEBSITE": "http://www.phila.gov/parksandrecreation/findafacility/RecCenterDetails.aspx?ID=797", "ADDRESS": "1610 CHELTEN AVE", "NAME": "Morris Estate", "DISTRICT": 4, "ZIPCODE": "19141"}},{"geometry": {"type": "Point", "coordinates": [-75.1217438526015, 39.999977522899485]}, "type": "Feature", "id": 116, "properties": {"WEBSITE": "http://www.phila.gov/parksandrecreation/findafacility/RecCenterDetails.aspx?ID=792", "ADDRESS": "400-64 E ONTARIO ST", "NAME": "McVeigh", "DISTRICT": 3, "ZIPCODE": "19134"}},{"geometry": {"type": "Point", "coordinates": [-75.02636866253236, 40.06091331980165]}, "type": "Feature", "id": 117, "properties": {"WEBSITE": "http://www.phila.gov/parksandrecreation/findafacility/RecCenterDetails.aspx?ID=788", "ADDRESS": "8930 ASHTON RD", "NAME": "McArdle", "DISTRICT": 1, "ZIPCODE": "19152"}},{"geometry": {"type": "Point", "coordinates": [-75.09660616332135, 40.01246262328616]}, "type": "Feature", "id": 118, "properties": {"WEBSITE": "http://www.phila.gov/parksandrecreation/findafacility/RecCenterDetails.aspx?ID=813", "ADDRESS": "1501 E BRISTOL ST", "NAME": "Piccoli", "DISTRICT": 3, "ZIPCODE": "19124"}},{"geometry": {"type": "Point", "coordinates": [-75.12386524142927, 40.04898211403582]}, "type": "Feature", "id": 119, "properties": {"WEBSITE": "http://www.phila.gov/parksandrecreation/findafacility/RecCenterDetails.aspx?ID=839", "ADDRESS": "200-20 W 65TH AVE", "NAME": "Sturgis", "DISTRICT": 3, "ZIPCODE": "19126"}},{"geometry": {"type": "Point", "coordinates": [-75.13584652634097, 40.030398409837034]}, "type": "Feature", "id": 120, "properties": {"WEBSITE": "http://www.phila.gov/parksandrecreation/findafacility/RecCenterDetails.aspx?ID=710", "ADDRESS": "641 LINDLEY AVE", "NAME": "Barrett", "DISTRICT": 3, "ZIPCODE": "19120"}},{"geometry": {"type": "Point", "coordinates": [-75.23981631512012, 39.926325133072076]}, "type": "Feature", "id": 121, "properties": {"WEBSITE": "http://www.phila.gov/parksandrecreation/findafacility/RecCenterDetails.aspx?ID=789", "ADDRESS": "6744 REGENT ST", "NAME": "McCreesh", "DISTRICT": 8, "ZIPCODE": "19142"}},{"geometry": {"type": "Point", "coordinates": [-75.13744606156696, 40.000524600540714]}, "type": "Feature", "id": 122, "properties": {"WEBSITE": "http://www.phila.gov/parksandrecreation/findafacility/RecCenterDetails.aspx?ID=820", "ADDRESS": "3201 N 05TH ST", "NAME": "Rivera", "DISTRICT": 3, "ZIPCODE": "19140"}},{"geometry": {"type": "Point", "coordinates": [-75.0540734294282, 40.025626774218296]}, "type": "Feature", "id": 123, "properties": {"WEBSITE": "http://www.phila.gov/parksandrecreation/findafacility/RecCenterDetails.aspx?ID=822", "ADDRESS": "4301 LEVICK ST", "NAME": "Roosevelt", "DISTRICT": 2, "ZIPCODE": "19135"}},{"geometry": {"type": "Point", "coordinates": [-75.13655265673324, 40.038034095712874]}, "type": "Feature", "id": 124, "properties": {"WEBSITE": "http://www.phila.gov/parksandrecreation/findafacility/RecCenterDetails.aspx?ID=720", "ADDRESS": "851 W OLNEY AVE", "NAME": "Cherashore", "DISTRICT": 3, "ZIPCODE": "19141"}},{"geometry": {"type": "Point", "coordinates": [-75.25109082427464, 39.96886388227106]}, "type": "Feature", "id": 125, "properties": {"WEBSITE": "http://www.phila.gov/parksandrecreation/findafacility/RecCenterDetails.aspx?ID=753", "ADDRESS": "338-50 N 65TH ST", "NAME": "Granahan", "DISTRICT": 8, "ZIPCODE": "19139"}},{"geometry": {"type": "Point", "coordinates": [-75.22338820972777, 39.9677560899338]}, "type": "Feature", "id": 126, "properties": {"WEBSITE": "http://www.phila.gov/parksandrecreation/findafacility/RecCenterDetails.aspx?ID=850", "ADDRESS": "5100 WESTMINSTER AVE", "NAME": "West Mill Creek", "DISTRICT": 8, "ZIPCODE": "19139"}},{"geometry": {"type": "Point", "coordinates": [-75.1699191174855, 39.98104166145989]}, "type": "Feature", "id": 127, "properties": {"WEBSITE": "http://www.phila.gov/parksandrecreation/findafacility/RecCenterDetails.aspx?ID=772", "ADDRESS": "2101-35 CECIL B MOORE AVE", "NAME": "M.L. King", "DISTRICT": 6, "ZIPCODE": "19121"}},{"geometry": {"type": "Point", "coordinates": [-75.15922271326016, 40.050052941936315]}, "type": "Feature", "id": 128, "properties": {"WEBSITE": "http://www.phila.gov/parksandrecreation/findafacility/RecCenterDetails.aspx?ID=856", "ADDRESS": "1100 E CHELTEN AVE", "NAME": "Lonnie Young", "DISTRICT": 4, "ZIPCODE": "19138"}},{"geometry": {"type": "Point", "coordinates": [-75.21300813981705, 39.979216221683885]}, "type": "Feature", "id": 129, "properties": {"WEBSITE": "http://www.phila.gov/parksandrecreation/findafacility/RecCenterDetails.aspx?ID=717", "ADDRESS": "1701 BELMONT AVE", "NAME": "Carousel House", "DISTRICT": 5, "ZIPCODE": "19131"}},{"geometry": {"type": "Point", "coordinates": [-74.97272010097429, 40.09607347846903]}, "type": "Feature", "id": 130, "properties": {"WEBSITE": "http://www.phila.gov/parksandrecreation/findafacility/RecCenterDetails.aspx?ID=742", "ADDRESS": "3500 ACADEMY RD", "NAME": "Fitzpatrick", "DISTRICT": 1, "ZIPCODE": "19154"}},{"geometry": {"type": "Point", "coordinates": [-75.16854472355195, 40.044959292012095]}, "type": "Feature", "id": 131, "properties": {"WEBSITE": "http://www.phila.gov/parksandrecreation/findafacility/RecCenterDetails.aspx?ID=849", "ADDRESS": "5826 MC MAHON AVE", "NAME": "Waterview", "DISTRICT": 4, "ZIPCODE": "19144"}},{"geometry": {"type": "Point", "coordinates": [-75.111845885394, 39.984324184317686]}, "type": "Feature", "id": 132, "properties": {"WEBSITE": "http://www.phila.gov/parksandrecreation/findafacility/RecCenterDetails.aspx?ID=726", "ADDRESS": "2901 CEDAR ST", "NAME": "Cohocksink", "DISTRICT": 2, "ZIPCODE": "19134"}}]}